{"markers":[
    { 
        "key":1,
        "title":"Nizampet",
        "coordinates":{
            "latitude":17.525615, 
            "longitude":78.366180
        }
    },

    {   
        "key":2,
        "title":"Nizampet-krishnaja hills",
        "coordinates":{
            "latitude":17.524834, 
            "longitude":78.361083
        }
    },

    {
        "key":3,
        "title":"Bachupally",
        "coordinates":{
            "latitude":17.530959, 
            "longitude":78.362827
        } 
    },
    {
        "key":4,
        "title":"Mallampet",
        "coordinates":{
            "latitude":17.587585, 
            "longitude":78.360000
        }
    },
    {
        "key":5,
        "title":"Kazipally",
        "coordinates":{
            "latitude":17.563542, 
            "longitude":78.357073
        }
    },
    {
        "key":6,
        "title":"Bowrampet",
        "coordinates":{
            "latitude":17.563435, 
            "longitude":78.369364
        }
    },
    {
        "key":7,
        "title":"Bollaram",
        "coordinates":{
            "latitude":17.560320, 
            "longitude":78.338635
        }
    },
    {
        "key":8,
        "title":"Gandhinagar",
        "coordinates":{
            "latitude":17.557332, 
            "longitude":78.342990
        }
    },
    {
       "key":9,
        "title":"Mayurinagar",
        "coordinates":{
            "latitude"  :17.518652, 
            "longitude" :78.366065
        }
    }
]
}